City_ID,City,Cloudiness,Country,Date,Humidity,Lat,Lng,Max Temp,Wind Speed
0,avarua,79,CK,1595624318,65,-21.21,-159.78,77,4.7
1,saint george,1,US,1595624173,26,37.1,-113.58,95,10.29
2,dasoguz,62,TM,1595624319,42,41.84,59.97,80.6,8.39
3,albany,65,US,1595624102,42,42.6,-73.97,91,3.2
4,ushuaia,90,AR,1595624118,95,-54.8,-68.3,32,5.82
5,jam sahib,0,PK,1595624319,66,26.3,68.63,89.6,11.41
6,sao joao da barra,0,BR,1595624319,73,-21.64,-41.05,75.2,18.34
7,saskylakh,100,RU,1595624319,88,71.92,114.08,45.5,8.93
8,yellowknife,90,CA,1595624176,76,62.46,-114.35,57.99,9.17
9,bluff,100,NZ,1595624320,83,-46.6,168.33,49.98,17.54
10,busselton,89,AU,1595624320,75,-33.65,115.33,45,14.29
11,novyy urengoy,29,RU,1595624320,74,66.08,76.63,51.24,9.8
12,kahului,20,US,1595624320,55,20.89,-156.47,87.8,23.04
13,shieli,65,KZ,1595624321,32,44.17,66.75,74.14,6.29
14,hilo,90,US,1595624321,69,19.73,-155.09,82.4,8.05
15,olinda,40,BR,1595624322,69,-8.01,-34.86,78.8,16.11
16,vaini,75,TO,1595624322,94,-21.2,-175.2,71.6,4.7
17,marzuq,31,YE,1595624323,63,14.4,46.47,79.56,8.55
18,thompson,90,CA,1595624323,100,55.74,-97.86,68,4.7
19,kodiak,90,US,1595624323,87,57.79,-152.41,57.2,3.36
20,hobart,100,AU,1595624106,81,-42.88,147.33,43,6.93
21,kirakira,31,SB,1595624323,81,-10.45,161.92,81.25,13.04
22,hithadhoo,100,MV,1595624324,71,-0.6,73.08,81.77,3.65
23,yar-sale,0,RU,1595624324,85,66.83,70.83,51.46,8.14
24,rikitea,34,PF,1595624324,58,-23.12,-134.97,68.49,13.06
25,touros,20,BR,1595624324,74,-5.2,-35.46,78.8,12.75
26,mataura,94,NZ,1595624324,83,-46.19,168.86,44.15,6.26
27,saint-augustin,13,CA,1595624325,58,51.23,-58.65,71.53,14.34
28,port-gentil,75,GA,1595624325,83,-0.72,8.78,77,14.67
29,marawi,73,PH,1595624325,94,8,124.29,73,3
30,oranjemund,0,NA,1595624325,32,-28.55,16.43,66.79,3.89
31,atuona,28,PF,1595624325,79,-9.8,-139.03,79.16,20.45
32,sibolga,69,ID,1595624251,75,1.74,98.78,76.39,3.62
33,george town,20,MY,1595624224,94,5.41,100.34,77,2.24
34,comodoro rivadavia,63,AR,1595624292,64,-45.87,-67.5,44.6,12.75
35,tasiilaq,79,GL,1595624326,75,65.61,-37.64,44.6,8.05
36,port elizabeth,0,ZA,1595624046,66,-33.92,25.57,55.4,5.82
37,belo horizonte,75,BR,1595624169,60,-19.92,-43.94,71.6,13.87
38,leticia,40,CO,1595624327,66,-4.22,-69.94,89.6,5.82
39,bandarbeyla,3,SO,1595624327,81,9.49,50.81,75.61,29.33
40,longyearbyen,0,SJ,1595624327,81,78.22,15.64,51.8,11.41
41,cidreira,100,BR,1595624327,78,-30.18,-50.21,64.94,5.08
42,humberto de campos,1,BR,1595624328,74,-2.6,-43.46,79.74,5.97
43,belaya gora,0,RU,1595624328,46,68.53,146.42,81.18,1.72
44,bairiki,20,KI,1595624328,74,1.33,172.98,84.2,13.87
45,eyl,91,SO,1595624328,69,7.98,49.82,77.2,25.23
46,kaifeng,100,CN,1595624328,94,34.79,114.35,68,5.64
47,georgetown,20,MY,1595624329,94,5.41,100.34,77,2.24
48,big rapids,40,US,1595624309,39,43.7,-85.48,82.4,3.38
49,salalah,40,OM,1595624329,94,17.02,54.09,78.8,6.93
50,trzebinia,20,PL,1595624329,93,50.16,19.47,62.6,8.05
51,cabo san lucas,5,MX,1595624330,55,22.89,-109.91,93,11.41
52,pevek,91,RU,1595624330,69,69.7,170.31,46.24,9.93
53,gat,0,IL,1595624282,61,31.61,34.76,81,3.87
54,tuatapere,99,NZ,1595624330,85,-46.13,167.68,46.24,6.78
55,novobirilyussy,25,RU,1595624331,95,56.95,90.67,50.77,3.29
56,port alfred,0,ZA,1595624331,31,-33.59,26.89,67.73,8.37
57,batagay,100,RU,1595624331,44,67.63,134.63,73.89,2.98
58,ostrovnoy,33,RU,1595624331,87,68.05,39.51,60.37,8.21
59,vardo,0,NO,1595624332,87,70.37,31.11,55.4,12.75
60,myanaung,92,MM,1595624332,77,18.28,95.32,79.25,2.19
61,east london,0,ZA,1595624169,30,-33.02,27.91,64.74,6.51
62,bengkulu,99,ID,1595624332,89,-3.8,102.27,74.64,3.83
63,awbari,0,LY,1595624333,19,26.59,12.78,79.92,4.59
64,punta arenas,86,CL,1595624093,80,-53.15,-70.92,39.2,14.99
65,los llanos de aridane,12,ES,1595624333,78,28.66,-17.92,71.6,18.34
66,odweyne,3,SO,1595624333,58,9.41,45.06,72.34,14.32
67,zhigansk,61,RU,1595624334,71,66.77,123.37,64.02,9.6
68,raudeberg,23,NO,1595624334,62,61.99,5.14,59,9.17
69,meulaboh,98,ID,1595624334,89,4.14,96.13,76.05,4.29
70,luanda,0,AO,1595624257,73,-8.84,13.23,75.2,5.82
71,songea,40,TZ,1595624203,87,-10.68,35.65,59,4.7
72,tilichiki,0,RU,1595624335,57,60.47,166.1,59.95,4.32
73,bredasdorp,0,ZA,1595624335,87,-34.53,20.04,48.2,6.93
74,waipawa,0,NZ,1595624336,87,-41.41,175.52,44.01,3.36
75,dikson,82,RU,1595624336,97,73.51,80.55,42.87,11.23
76,castro,0,BR,1595624200,71,-24.79,-50.01,61.72,5.35
77,solnechnyy,2,RU,1595624336,79,50.72,136.63,60.57,0.27
78,geraldton,0,AU,1595624337,75,-28.77,114.6,46.4,17.22
79,senneterre,75,CA,1595624337,32,48.38,-77.23,82.4,6.93
80,tuktoyaktuk,75,CA,1595624337,59,69.45,-133.04,62.6,9.17
81,puerto ayora,75,EC,1595624337,65,-0.74,-90.35,78.8,21.92
82,barrow,90,US,1595624207,80,71.29,-156.79,35.6,17.22
83,san juan,0,AR,1595624131,32,-31.54,-68.54,55.47,8.08
84,souillac,75,MU,1595624338,64,-20.52,57.52,68,13.87
85,cape town,0,ZA,1595624338,44,-33.93,18.42,59,3.36
86,port hedland,0,AU,1595624339,43,-20.32,118.57,55.4,9.17
87,pandan,82,PH,1595624339,78,14.05,124.17,80.15,2.68
88,port hardy,75,CA,1595624339,63,50.7,-127.42,64.4,12.75
89,payyannur,88,IN,1595624339,87,12.1,75.2,77.59,7.25
90,mangai,2,CD,1595624340,39,-4.05,19.53,77.63,0.18
91,ponca city,20,US,1595624340,52,36.71,-97.09,91.99,10.29
92,mahebourg,75,MU,1595624340,64,-20.41,57.7,68,13.87
93,jamestown,90,US,1595624340,78,42.1,-79.24,80.01,9.17
94,weligama,97,LK,1595624341,87,5.97,80.42,78.87,8.77
95,ponta do sol,0,PT,1595624341,61,32.67,-17.1,71.01,3.47
96,eureka,90,US,1595624232,72,40.8,-124.16,66.99,6.93
97,san luis,0,AR,1595624292,44,-33.3,-66.34,49.41,8.43
98,vila franca do campo,40,PT,1595624342,73,37.72,-25.43,69.8,9.17
99,smithers,75,CA,1595624343,67,54.78,-127.17,60.8,2.24
100,kununurra,0,AU,1595624343,34,-15.77,128.73,55.4,4.7
101,oga,75,IT,1595624343,87,46.46,10.35,59,2.24
102,hermanus,0,ZA,1595624343,87,-34.42,19.23,48.99,1.99
103,chake chake,67,TZ,1595624344,71,-5.25,39.77,75.47,15.66
104,kihei,20,US,1595624083,55,20.79,-156.47,87.8,23.04
105,bulolo,23,PG,1595624344,77,-7.2,146.65,68.2,2.13
106,bundaberg,90,AU,1595624344,88,-24.85,152.35,63,8.05
107,kaitangata,64,NZ,1595624345,56,-46.28,169.85,48.99,10
108,alice springs,0,AU,1595624107,60,-23.7,133.88,42.8,8.05
109,komsomolskiy,40,UZ,1595624345,41,40.43,71.72,78.8,6.93
110,beloha,0,MG,1595624345,74,-25.17,45.05,59.92,11.54
111,anadyr,64,RU,1595624345,51,64.75,177.48,62.6,17.9
112,provideniya,100,RU,1595624346,67,64.38,-173.3,49.53,7.27
113,worland,1,US,1595624346,17,44.02,-107.96,91.99,6.93
114,lagoa,0,PT,1595624346,76,39.05,-27.98,70.03,10.98
115,cherskiy,10,RU,1595624346,60,68.75,161.3,68.88,0.65
116,naze,90,JP,1595624347,88,28.37,129.48,82.4,10.29
117,esperance,0,AU,1595624347,87,-33.87,121.9,44.6,11.41
118,harlingen,40,US,1595624319,52,26.19,-97.7,93.2,11.41
119,sept-iles,75,CA,1595624121,53,50.2,-66.38,73.4,11.41
120,pangai,40,TO,1595624347,83,-19.8,-174.35,77,17.22
121,sanchor,93,IN,1595624348,61,24.76,71.77,89.74,11.39
122,airai,56,TL,1595624348,81,-8.93,125.41,51.84,2.93
123,rocha,100,UY,1595624348,88,-34.48,-54.33,46.78,7.7
124,tiksi,20,RU,1595624349,65,71.69,128.87,62.82,8.23
125,taoudenni,0,ML,1595624349,7,22.68,-3.98,105.46,15.55
126,mar del plata,75,AR,1595623794,75,-38,-57.56,44.6,20.8
127,atbasar,47,KZ,1595624350,89,51.8,68.33,62.04,5.08
128,saldanha,0,ZA,1595624350,54,-33.01,17.94,53.6,1.12
129,carnarvon,0,AU,1595624350,76,-24.87,113.63,51.8,8.05
130,laguna,5,US,1595624350,37,38.42,-121.42,88,8.05
131,lazaro cardenas,58,MX,1595624350,65,17.96,-102.2,86.31,7.25
132,murshidabad,99,IN,1595624351,91,24.18,88.27,78.94,5.91
133,arraial do cabo,0,BR,1595624351,73,-22.97,-42.03,75.2,18.34
134,hit,0,IQ,1595624351,17,33.64,42.83,94.73,4.68
135,tyumentsevo,83,RU,1595624352,96,53.32,81.5,60.91,6.58
136,jasper,20,US,1595624352,37,37.2,-94.35,96.8,11.41
137,narsaq,75,GL,1595624352,62,60.92,-46.05,57.2,8.05
138,walla walla,1,US,1595624352,24,46.06,-118.34,80.01,13.87
139,victoria,100,HK,1595624353,79,22.29,114.16,84,5.99
140,cururupu,90,BR,1595624353,78,-1.83,-44.87,78.58,4.12
141,santa cruz de la palma,37,ES,1595624353,78,28.68,-17.76,71.6,18.34
142,staraya poltavka,47,RU,1595624353,54,50.48,46.48,66.87,7.7
143,new norfolk,100,AU,1595624354,84,-42.78,147.06,41,2.86
144,jumla,72,NP,1595624354,72,29.27,82.18,61.36,0.38
145,antofagasta,0,CL,1595624204,62,-23.65,-70.4,59,18.34
146,mindelo,75,CV,1595624355,74,16.89,-24.98,80.6,14.99
147,jining,51,CN,1595624355,92,35.41,116.58,69.48,3.8
148,lebu,93,CL,1595624355,77,-37.62,-73.65,49.5,10.02
149,kristiansund,40,NO,1595624355,71,63.11,7.73,53.6,11.41
150,nikolskoye,40,RU,1595624355,87,59.7,30.79,55,4.47
151,kapaa,1,US,1595624356,74,22.08,-159.32,82.4,11.41
152,bathsheba,75,BB,1595624356,74,13.22,-59.52,86,20.8
153,gedo,100,ET,1595624356,100,9.02,37.45,53.56,3.04
154,college,75,US,1595624356,63,64.86,-147.8,62.6,3.36
155,mehamn,12,NO,1595624357,82,71.04,27.85,59,10.29
156,butaritari,32,KI,1595624357,80,3.07,172.79,81.99,17.38
157,tevriz,0,RU,1595624357,95,57.51,72.4,52.23,3.22
158,hemnesberget,75,NO,1595624357,87,66.23,13.63,55,3.36
159,bonthe,100,SL,1595624358,83,7.53,-12.51,76.15,11.5
160,klaksvik,100,FO,1595624358,93,62.23,-6.59,51.8,3.36
161,santa cruz,75,BO,1595624358,82,-17.8,-63.17,59,6.93
162,floro,39,NO,1595624142,62,61.6,5.03,59,9.17
163,lerwick,52,GB,1595624359,82,60.15,-1.15,55.4,5.82
164,lompoc,10,US,1595624359,64,34.64,-120.46,69.01,10.29
165,ribeira grande,40,PT,1595624359,73,38.52,-28.7,71.6,8.05
166,toora-khem,38,RU,1595624359,77,52.47,96.11,47.53,1.05
167,kuloy,0,RU,1595624360,91,61.03,42.49,51.44,2.37
168,fortuna,20,US,1595624360,72,40.6,-124.16,66.99,9.17
169,calella,45,ES,1595624360,81,41.62,2.67,78.01,3.56
170,saint-philippe,90,RE,1595624360,59,-21.36,55.77,66.2,20.8
171,sembakung,100,ID,1595624361,95,3.82,117.25,72.63,1.92
172,sambava,87,MG,1595624361,73,-14.27,50.17,70.09,18.01
173,batagay-alyta,27,RU,1595624361,48,67.8,130.41,69.76,2.84
174,ghanzi,0,BW,1595624103,51,-21.57,21.78,48.74,7.83
175,bowen,40,AU,1595624362,93,-20.02,148.23,64.99,7.05
176,korla,0,CN,1595624362,65,41.76,86.15,82.99,1.01
177,cusuna,88,HN,1595624362,57,15.85,-85.23,88.25,10.96
178,yulara,0,AU,1595624362,70,-25.24,130.99,42.8,9.17
179,aquidauana,0,BR,1595624363,38,-20.47,-55.79,85.06,3.06
180,saint-francois,0,FR,1595624363,49,46.42,3.91,68,2.55
181,klobuck,100,PL,1595624363,100,50.9,18.94,64.99,6.06
182,bella union,100,UY,1595624364,92,-30.28,-57.6,46.02,5.68
183,brae,72,GB,1595624364,82,60.4,-1.35,55.4,5.82
184,chokurdakh,8,RU,1595624364,58,70.63,147.92,71.1,6.96
185,vanavara,18,RU,1595624364,95,60.34,102.28,45.43,5.35
186,pochutla,75,MX,1595624365,62,15.74,-96.47,89.01,6.93
187,wanning,73,CN,1595624365,81,18.8,110.4,80.69,6.11
188,hasaki,75,JP,1595624365,100,35.73,140.83,75.2,3.36
189,kudahuvadhoo,100,MV,1595624365,73,2.67,72.89,82.33,6.17
190,banamba,35,ML,1595624365,74,13.55,-7.45,79.72,7.63
191,half moon bay,75,US,1595624198,87,37.46,-122.43,77,5.82
192,amapa,100,BR,1595624366,94,1,-52,76.71,3.22
193,amudat,45,UG,1595624366,82,1.95,34.95,67.06,1.41
194,kargopol,5,RU,1595624366,87,61.51,38.95,49.08,1.99
195,vila,0,PT,1595624367,77,42.03,-8.16,71.01,5.82
196,shenzhen,100,CN,1595624131,93,22.55,114.07,86,7.49
197,hamilton,1,US,1595624367,45,39.18,-84.53,91,8.05
198,ust-tsilma,68,RU,1595624367,61,65.44,52.15,60.69,5.08
199,dzialdowo,25,PL,1595624368,67,53.24,20.17,62.6,5.82
200,freeport,75,US,1595624326,83,40.66,-73.58,79,6.11
201,bambous virieux,75,MU,1595624368,64,-20.34,57.76,69.01,13.87
202,broome,75,US,1595624368,54,42.25,-75.83,82.99,4.7
203,teguise,20,ES,1595624369,78,29.06,-13.56,73.4,24.16
204,lisakovsk,39,KZ,1595624369,96,52.54,62.49,59.92,9.53
205,scarborough,100,GB,1595624369,82,54.28,-0.4,57.99,1.99
206,abatskoye,16,RU,1595624369,80,56.29,70.46,52.79,4.27
207,qaanaaq,0,GL,1595624370,52,77.48,-69.36,49.59,2.64
208,keningau,20,MY,1595624370,100,5.34,116.16,75.2,2.24
209,talnakh,0,RU,1595624370,81,69.49,88.4,48.2,13.42
210,buedu,100,SL,1595624370,96,8.28,-10.37,71.42,4.99
211,prestea,29,GH,1595624370,86,5.43,-2.14,72.45,2.91
212,asau,40,RO,1595624371,95,46.43,26.4,62.01,2.86
213,wewak,98,PG,1595624371,86,-3.55,143.63,78.21,8.79
214,kruisfontein,0,ZA,1595624372,27,-34,24.73,62.47,8.99
215,kavieng,49,PG,1595624372,77,-2.57,150.8,83.08,15.32
216,sur,33,OM,1595624373,64,22.57,59.53,86.27,15.43
217,dongsheng,67,CN,1595624373,71,39.82,109.98,67.12,14.97
218,luderitz,0,NA,1595624373,21,-26.65,15.16,71.6,6.93
219,evans,20,US,1595624083,49,33.53,-82.13,93.2,9.17
220,kloulklubed,75,PW,1595624373,88,7.04,134.26,78.8,3.36
221,yuanping,88,CN,1595624374,58,38.72,112.76,65.35,1.86
222,poum,13,NC,1595624374,83,-20.23,164.02,73.9,14.61
223,deputatskiy,96,RU,1595624374,39,69.3,139.9,71.38,1.77
224,avinurme,100,EE,1595624344,93,58.98,26.86,55.99,1.99
225,aswan,9,EG,1595624348,18,24.09,32.91,92.03,11.27
226,vila velha,75,BR,1595624375,69,-20.33,-40.29,77,9.17
227,san quintin,0,MX,1595624375,63,30.48,-115.95,70.21,11.68
228,portland,90,US,1595624072,52,45.52,-122.68,68,9.17
229,bubaque,100,GW,1595624376,82,11.28,-15.83,80.42,11.16
230,te anau,99,NZ,1595624376,86,-45.42,167.72,43.75,5.77
231,hay river,75,CA,1595624376,76,60.82,-115.8,57.2,13.87
232,minjur,40,IN,1595624376,83,13.27,80.27,84.2,4.7
233,hambantota,83,LK,1595624376,82,6.12,81.12,79.59,16.78
234,vestmannaeyjar,22,IS,1595624377,72,63.44,-20.27,52.48,5.28
235,catuday,75,PH,1595624377,78,16.29,119.81,80.98,5.99
236,colombo,75,LK,1595624377,94,6.93,79.85,77,5.82
237,mount gambier,39,AU,1595624377,93,-37.83,140.77,35.6,4.34
238,fasa,20,IR,1595624377,60,28.94,53.65,71.6,4.7
239,tamuin,12,MX,1595624378,36,21.98,-98.75,98.67,5.37
240,kalmunai,100,LK,1595624378,79,7.42,81.82,80.33,3.42
241,farafangana,10,MG,1595624378,79,-22.82,47.83,63.7,11.34
242,aksu,0,CN,1595624378,32,41.12,80.26,76.23,0.45
243,otradnoye,40,RU,1595624379,87,59.78,30.82,55,4.47
244,severo-kurilsk,100,RU,1595624379,86,50.68,156.12,49.96,7.11
245,upernavik,44,GL,1595624379,78,72.79,-56.15,46.62,3.38
246,vuktyl,3,RU,1595624379,59,63.86,57.31,56.44,6.71
247,bethel,1,US,1595624299,57,41.37,-73.41,82,3.36
248,bozeman,1,US,1595624380,30,45.68,-111.04,82,17.22
249,chuy,100,UY,1595624380,91,-33.7,-53.46,48.02,9.33
250,constitucion,0,CL,1595624185,66,-35.33,-72.42,51.13,4.76
251,nhulunbuy,5,AU,1595624381,94,-12.23,136.77,69.8,5.82
252,jhawarian,0,PK,1595624381,32,32.36,72.62,92.86,3.09
253,ivankiv,51,UA,1595624381,52,50.94,29.89,66.2,4.47
254,the valley,20,AI,1595624382,70,18.22,-63.06,87.8,14.99
255,rawson,89,AR,1595624382,56,-43.3,-65.1,44.92,18.39
256,kongolo,13,CD,1595624382,36,-5.38,27,74.01,5.61
257,jiwani,73,PK,1595624382,83,25.05,61.74,83.44,10.58
258,faanui,0,PF,1595624383,78,-16.48,-151.75,77.49,21.32
259,del rio,20,US,1595624126,29,29.36,-100.9,102.2,9.17
260,clyde river,40,CA,1595624383,76,70.47,-68.59,51.8,9.17
261,sundsvall,100,SE,1595624384,87,62.39,17.31,55.99,5.82
262,lufilufi,67,WS,1595624384,83,-13.87,-171.6,80.01,4
263,yenagoa,99,NG,1595624384,93,4.92,6.26,75.11,4.29
264,port macquarie,40,AU,1595624384,93,-31.43,152.92,48.99,1.68
265,isangel,24,VU,1595624385,83,-19.55,169.27,75.2,9.17
266,palmas bellas,97,PA,1595624385,78,9.23,-80.09,81,5.01
267,peplos,0,GR,1595624386,36,40.96,26.27,80.6,11.41
268,pauini,65,BR,1595624386,48,-7.71,-66.98,89.42,1.05
269,kisangani,32,CD,1595624386,90,0.52,25.2,72.5,1.63
270,newport,100,GB,1595624386,94,51.59,-3,64.99,1.99
271,laredo,40,US,1595624294,35,27.51,-99.51,100.4,5.82
272,kysyl-syr,98,RU,1595624387,87,63.9,122.76,63.82,2.46
273,canhotinho,62,BR,1595624387,94,-8.88,-36.19,64.51,8.57
274,atambua,43,ID,1595624387,85,-9.11,124.89,64.15,5.88
275,cabedelo,31,BR,1595624097,73,-6.98,-34.83,77,13.87
276,lewistown,20,US,1595624387,55,40.6,-77.57,87.8,6.93
277,caravelas,8,BR,1595624388,77,-17.71,-39.25,70.23,5.48
278,katsuyama,90,JP,1595624388,100,36.06,136.5,73.4,5.82
279,lukovetskiy,20,RU,1595624388,100,64.3,41.92,53.6,0.69
280,hegang,1,CN,1595624388,98,47.4,130.37,61.21,3.29
281,dingle,100,PH,1595624388,85,11,122.67,76.19,1.59
282,maragogi,3,BR,1595624389,78,-9.01,-35.22,74.14,10.83
283,makakilo city,75,US,1595624389,58,21.35,-158.09,86,11.41
284,moindou,13,NC,1595624389,88,-21.69,165.68,66.2,4.9
285,kasane,10,BW,1595624389,51,-17.82,25.15,52.38,5.14
286,aklavik,75,CA,1595624389,48,68.22,-135.01,66.2,3.36
287,katsuura,94,JP,1595624390,93,35.13,140.3,77,10.04
288,trairi,0,BR,1595624390,74,-3.28,-39.27,78.13,12.26
289,bentiu,100,SS,1595624390,89,9.23,29.83,73.18,4.45
290,kailua,40,US,1595624390,51,21.4,-157.74,86,18.34
291,lumeje,0,AO,1595624391,35,-11.55,20.78,58.12,4.07
292,mega,84,ET,1595624391,61,4.05,38.3,65.12,12.75
293,tacna,20,PE,1595624391,67,-18.01,-70.25,62.6,4.7
294,pontes e lacerda,56,BR,1595624391,29,-15.23,-59.34,91.85,3.11
295,la ronge,40,CA,1595624391,64,55.1,-105.28,75.2,9.17
296,tamiahua,29,MX,1595624392,63,21.27,-97.45,88.81,10.25
297,anderson,90,US,1595624392,73,34.53,-82.65,75.2,9.17
298,fare,0,PF,1595624392,73,-16.7,-151.02,78.04,19.33
299,camargo,27,MX,1595624392,31,27.67,-105.17,90.43,12.19
300,iqaluit,75,CA,1595624392,71,63.75,-68.51,51.8,5.82
301,sao filipe,33,CV,1595624393,78,14.9,-24.5,77.38,5.3
302,kokopo,0,PG,1595624393,77,-4.35,152.26,79.39,9.89
303,goderich,2,CA,1595624393,70,43.75,-81.72,78.01,14.9
304,honiara,40,SB,1595624256,100,-9.43,159.95,71.6,3.96
305,ilulissat,100,GL,1595624394,87,69.22,-51.1,48.2,9.17
306,wad madani,95,SD,1595624394,37,14.4,33.52,90.95,14.88
307,grindavik,20,IS,1595624394,66,63.84,-22.43,48.2,23.04
308,lebanon,75,US,1595624394,59,36.21,-86.29,91,6.93
309,bartica,20,GY,1595624394,88,6.4,-58.62,80.6,4.7
310,santiago de cuba,40,CU,1595624280,83,20.02,-75.82,82.4,6.93
311,quatre cocos,75,MU,1595624396,64,-20.21,57.76,69.01,13.87
312,saint-pierre,90,RE,1595624396,59,-21.34,55.48,66.2,20.8
313,tucupita,82,VE,1595624396,56,9.06,-62.05,88.56,4.9
314,porto novo,20,BJ,1595624397,88,6.5,2.6,77,11.41
315,khatanga,99,RU,1595624397,92,71.97,102.5,39.96,11.95
316,gamba,100,GA,1595624397,81,-2.65,10,72.95,7.29
317,batemans bay,99,AU,1595624397,94,-35.72,150.18,42.01,1.01
318,inirida,35,CO,1595624398,76,3.87,-67.92,80.74,2.89
319,thunder bay,90,CA,1595624398,65,48.4,-89.32,77,8.05
320,la plaine,75,DM,1595624398,70,15.33,-61.25,87.8,3.36
321,jalu,0,LY,1595624398,49,29.03,21.55,79.59,16.49
322,yerbogachen,76,RU,1595624296,92,61.28,108.01,51.8,11.14
323,santa cruz del sur,80,CU,1595624399,68,20.71,-78,85.57,2.77
324,karpathos,1,GR,1595624399,83,35.51,27.21,75.2,16.11
325,san cristobal,40,VE,1595624125,48,7.77,-72.22,87.8,19.46
326,kavaratti,100,IN,1595624399,85,10.57,72.64,80.01,17.96
327,talara,45,PE,1595624399,84,-4.58,-81.27,65.07,21.23
328,makarov,100,RU,1595624400,85,48.63,142.8,53.53,2.84
329,alekseyevka,14,RU,1595624400,79,50.63,38.69,58.1,2.75
330,taltal,0,CL,1595624400,44,-25.4,-70.48,60.69,2.3
331,heihe,40,CN,1595624401,94,50.24,127.49,68,6.71
332,tabuk,36,PH,1595624401,87,17.42,121.44,73.71,2.33
333,port lincoln,0,AU,1595624401,89,-34.73,135.87,50.09,2.75
334,magadan,96,RU,1595624402,82,59.57,150.8,56.34,5.12
335,necochea,88,AR,1595624402,88,-38.55,-58.74,39.99,13
336,ellisras,0,ZA,1595624405,74,-23.66,27.74,48.76,5.88
337,male,75,MV,1595624399,78,4.17,73.51,82.4,14.99
338,bauchi,90,NG,1595624406,75,10.5,10,75.06,2.89
339,tigil,44,RU,1595624406,69,57.8,158.67,57.96,0.69
340,sao jose da coroa grande,1,BR,1595624406,76,-8.9,-35.15,74.75,11.16
341,salinas,75,US,1595624223,68,36.68,-121.66,66.99,10.29
342,araouane,8,ML,1595624408,9,18.9,-3.53,105.01,6.15
343,mattru,97,SL,1595624408,88,7.62,-11.83,73.85,5.19
344,wooster,20,US,1595624408,45,40.81,-81.94,86,9.17
345,ulaanbaatar,40,MN,1595624238,82,47.91,106.88,64.4,2.24
346,tessalit,86,ML,1595624409,43,20.2,1.01,86.67,5.86
347,biak,23,ID,1595624409,81,-0.91,122.88,75.69,7.05
348,shu,26,KZ,1595624409,77,43.6,73.76,67.06,7.72
349,yeniseysk,0,RU,1595624409,94,58.45,92.17,48.27,1.83
350,yining,100,CN,1595624410,93,29.04,114.56,75.92,0.92
351,launceston,40,AU,1595624122,86,-41.45,147.17,39.2,4.7
352,muros,0,ES,1595624411,75,42.78,-9.06,68,5.99
353,kondinskoye,88,RU,1595624411,74,59.65,67.41,52.72,3.71
354,morehead,40,US,1595624411,66,37.27,-87.18,86,2.46
355,alofi,5,NU,1595624412,80,-19.06,-169.92,76.62,22.77
356,padang,99,ID,1595624412,79,-0.95,100.35,77.67,5.53
357,limbang,75,MY,1595624412,100,4.75,115,75.2,3.36
358,samoylovka,1,RU,1595624412,77,51.18,43.71,55,3.47
359,kalamazoo,40,US,1595624412,35,42.25,-85.55,87.8,4.7
360,morondava,0,MG,1595624413,52,-20.28,44.28,70.77,16.15
361,boone,20,US,1595624413,52,39.03,-92.33,91.4,5.82
362,labuhan,100,ID,1595624414,81,-6.88,112.21,73.09,9.78
363,uvinza,4,TZ,1595624414,61,-5.1,30.39,66.16,2.57
364,kangaatsiaq,99,GL,1595624414,88,68.31,-53.46,45.27,14.63
365,qaqortoq,75,GL,1595624415,62,60.72,-46.03,57.2,8.05
366,paamiut,98,GL,1595624415,93,61.99,-49.67,47.37,5.35
367,canavieiras,12,BR,1595624415,78,-15.68,-38.95,70.39,5.68
368,havoysund,35,NO,1595624416,87,71,24.66,62.6,4.7
369,codrington,5,AU,1595624416,87,-38.27,141.97,40.41,3.98
370,shingu,100,JP,1595624416,95,33.73,135.98,74.44,2.01
371,nabire,99,ID,1595624417,89,-3.37,135.48,75.81,4.09
372,inuvik,75,CA,1595624417,45,68.35,-133.72,68,4.7
373,supuru de jos,25,RO,1595624418,82,47.47,22.8,66.2,4.7
374,griffith,40,US,1595624200,58,41.53,-87.42,84.99,6.93
375,zhanaozen,4,KZ,1595624418,39,43.3,52.8,79.29,18.43
376,palmer,75,US,1595624418,54,42.16,-72.33,82.99,3.36
377,torbay,90,CA,1595624418,100,47.67,-52.73,57.99,8.05
378,hakkari,50,TR,1595624419,48,37.58,44.17,65.77,5.41
379,narok,97,KE,1595624419,66,-1.08,35.86,60.82,2.62
380,lata,0,PT,1595624420,76,40.16,-8.33,69.01,1.99
381,mandera,28,KE,1595624420,49,3.94,41.87,78.91,23.51
382,lorengau,65,PG,1595624420,81,-2.02,147.27,82.53,9.53
383,gazojak,15,TM,1595624420,19,41.19,61.4,83.88,6.11
384,road town,40,VG,1595624421,74,18.42,-64.62,87.8,10.29
385,yashkino,100,RU,1595624421,100,55.87,85.43,51.8,2.24
386,formosa do rio preto,0,BR,1595624276,42,-11.05,-45.19,77.61,4.27
387,altus,1,US,1595624409,34,34.64,-99.33,96.8,11.41
388,port hawkesbury,1,CA,1595624422,78,45.62,-61.35,73.99,8.05
389,stornoway,100,GB,1595624422,88,58.21,-6.39,55.99,8.57
390,praia,75,CV,1595624422,74,14.92,-23.51,80.6,12.75
391,samarai,27,PG,1595624423,86,-10.62,150.67,79.03,14.03
392,kupino,100,RU,1595624423,96,54.37,77.3,59.7,4.18
393,alausi,81,EC,1595624423,88,-2.2,-78.83,51.93,3.06
394,ambilobe,84,MG,1595624424,57,-13.2,49.05,70.93,4.97
395,gazli,0,UZ,1595624424,21,40.13,63.45,81.45,11.27
396,sabya,40,SA,1595624424,79,17.15,42.63,89.6,8.05
397,svetlaya,17,RU,1595624424,86,46.54,138.33,57.4,2.04
398,jyvaskyla,75,FI,1595624425,93,62.24,25.72,51.01,10.29
399,diu,100,IN,1595624425,80,20.71,70.98,82.85,9.17
400,sola,100,VU,1595624425,81,-13.88,167.55,80.17,25.75
401,corner brook,40,CA,1595624141,36,48.97,-57.95,78.8,8.05
402,avera,1,US,1595624426,46,33.19,-82.53,93.2,4.7
403,mastic beach,90,US,1595624426,78,40.77,-72.85,78.01,5.48
404,tarnogskiy gorodok,0,RU,1595624426,92,60.5,43.58,51.12,2.53
405,kamenka,0,RU,1595624427,77,51.32,42.77,55.99,1.88
406,ban dung,7,TH,1595624427,77,17.7,103.26,79.84,1.52
407,turukhansk,100,RU,1595624428,75,65.82,87.98,55.09,2.73
408,plettenberg bay,0,ZA,1595624428,26,-34.05,23.37,66.97,8.32
409,imeni babushkina,0,RU,1595624428,92,59.76,43.13,50.07,2.15
410,trelew,70,AR,1595624428,56,-43.25,-65.31,44.22,18.34
411,anchorage,90,US,1595624240,82,61.22,-149.9,57.99,3.36
412,dordrecht,29,NL,1595624429,77,51.81,4.67,66.99,1.99
413,faya,75,SA,1595624429,63,18.39,42.45,69.8,9.17
414,kenora,90,CA,1595624429,74,49.82,-94.43,80.6,9.17
415,marau,100,BR,1595624395,80,-28.45,-52.2,65.25,5.35
416,cairns,90,AU,1595624418,73,-16.92,145.77,69.8,12.75
417,kedrovyy,63,RU,1595624430,93,56.17,91.82,46.4,3.42
418,bijie,99,CN,1595624431,94,27.31,105.29,67.19,4.14
419,dargaville,21,NZ,1595624431,73,-35.93,173.88,52.43,7.36
420,pangnirtung,75,CA,1595624431,81,66.15,-65.71,48.2,5.82
421,valle de allende,44,MX,1595624431,38,26.93,-105.4,83.25,11.01
422,nador,0,MA,1595624360,65,35.17,-2.93,80.6,2.04
423,kuruman,0,ZA,1595624432,53,-27.45,23.43,46.99,7.92
424,korsakov,75,RU,1595624432,87,46.63,142.78,53.6,8.95
425,wattegama,86,LK,1595624433,77,6.8,81.48,75.78,2.59
426,daru,90,PG,1595624433,87,-9.08,143.21,76.78,16.24
427,nuuk,75,GL,1595624320,81,64.18,-51.72,51.8,6.93
428,ambon,30,ID,1595624433,15,-3.7,128.18,77,1.01
429,cayenne,97,GF,1595624207,62,4.93,-52.33,87.8,9.17
430,shimoda,100,JP,1595624434,95,34.67,138.95,71.01,1.01
431,anloga,20,GH,1595624434,83,5.79,0.9,77,9.17
432,burns lake,92,CA,1595624434,40,54.23,-125.75,65.95,10.45
433,viedma,0,AR,1595624423,58,-40.81,-63,46,4
434,srednekolymsk,53,RU,1595624434,34,67.45,153.68,80.42,5.88
435,tabou,82,CI,1595624435,85,4.42,-7.35,75.52,9.48
436,teya,82,RU,1595624435,91,60.38,92.63,48.04,3.24
437,kapit,100,MY,1595624436,95,2.02,112.93,73.72,1.57
438,tabas,0,IR,1595624436,16,33.6,56.92,98.6,6.93
439,namatanai,1,PG,1595624436,80,-3.67,152.43,79.9,8.37
440,sitka,90,US,1595624437,77,57.05,-135.33,59,3.36
441,ha giang,100,VN,1595624296,81,22.83,104.98,78.98,1.3
442,puerto plata,75,DO,1595624437,79,19.79,-70.69,88,23.04
443,aykhal,100,RU,1595624437,71,66,111.5,57.2,6.71
444,eislingen,77,DE,1595624438,56,48.7,9.71,71.01,1.01
445,mnogovershinnyy,39,RU,1595624438,82,53.94,139.92,52.36,3.78
446,baisha,99,CN,1595624438,79,26.52,110.93,77.52,3.24
447,la palma,1,US,1595624349,50,33.85,-118.05,84.99,5.82
448,christchurch,0,NZ,1595624245,100,-43.53,172.63,39,2.24
449,leningradskiy,100,RU,1595624439,71,69.38,178.42,45.34,10.63
450,rio grande,90,BR,1595624223,87,-32.03,-52.1,55.4,18.34
451,ayan,0,RU,1595624439,77,56.45,138.17,53.56,2.84
452,teahupoo,20,PF,1595624439,69,-17.83,-149.27,80.6,4.7
453,nambucca heads,90,AU,1595624440,87,-30.65,153,57.2,8.05
454,bull savanna,65,JM,1595624440,72,17.89,-77.59,82.44,13.82
455,lodja,13,CD,1595624440,60,-3.48,23.43,74.32,1.36
456,villacarrillo,1,ES,1595624441,30,38.12,-3.08,90,2.73
457,canada,5,ES,1595624441,84,38.68,-0.81,75.99,11.01
458,hovd,0,MN,1595624441,57,48.01,91.64,64.63,1.81
459,haines junction,99,CA,1595624441,53,60.75,-137.51,59.52,8.77
460,nantucket,1,US,1595624236,83,41.28,-70.1,75.2,8.05
461,ballina,75,AU,1595624442,93,-28.87,153.57,60.8,12.75
462,barranca,34,PE,1595624442,74,-10.75,-77.77,64.58,12.8
463,tiznit,0,MA,1595624442,48,29.58,-9.5,77.85,2.37
464,charters towers,0,AU,1595624443,94,-20.1,146.27,56.32,4.25
465,richards bay,0,ZA,1595624443,76,-28.78,32.04,62.4,9.73
466,siddipet,97,IN,1595624443,85,18.1,78.85,72.93,7
467,harrison,90,US,1595624444,83,30.41,-89.04,79,9.17
468,sao felix do xingu,84,BR,1595624424,49,-6.64,-51.99,84.33,1.19
469,hungund,100,IN,1595624300,90,16.07,76.05,71.78,13.49
470,tura,100,IN,1595624444,96,25.52,90.22,73.98,4.21
471,kidal,97,ML,1595624445,47,18.44,1.41,88.47,18.25
472,itarema,18,BR,1595624445,72,-2.92,-39.92,78.84,15.99
473,luxor,0,EG,1595624365,28,25.7,32.64,95,2.24
474,ystad,75,SE,1595624445,72,55.43,13.82,62.6,14.99
475,sikasso,100,ML,1595624446,94,10.92,-7,74.41,6.6
476,binghamton,75,US,1595624212,54,42.1,-75.92,84,4.7
477,bay roberts,100,CA,1595624446,1,47.6,-53.26,60.01,3.36
478,horka nad moravou,99,CZ,1595624446,86,49.64,17.21,64,1.01
479,crotone,0,IT,1595624447,58,39.09,17.12,79,4.21
480,broken hill,40,AU,1595624447,71,-31.95,141.43,50,11.41
481,port shepstone,0,ZA,1595624447,80,-30.74,30.45,62.13,16.46
482,guerrero negro,1,MX,1595624447,53,27.98,-114.06,75.38,15.9
483,sokolo,8,ML,1595624448,56,14.73,-6.12,87.87,12.24
484,baixa grande,8,BR,1595624448,63,-11.96,-40.17,69.37,9.57
485,dali,100,CN,1595624448,88,25.7,100.18,62.62,4.43
486,omis,20,HR,1595624448,83,43.44,16.69,71.6,1.12
487,lampang,22,TH,1595624449,92,18.33,99.5,75.2,1.14
488,merauke,12,ID,1595624449,84,-8.47,140.33,77.09,17.87
489,guozhen,100,CN,1595624449,85,34.37,107.36,68.79,1.81
490,acari,34,PE,1595624450,53,-15.43,-74.62,68.94,9.73
491,shalinskoye,58,RU,1595624450,78,55.72,93.76,47.79,1.86
492,visnes,45,NO,1595624450,76,59.36,5.22,57.2,4.7
493,mandal,49,IN,1595624450,80,25.45,74.57,77.47,3.96
494,grand-santi,99,GF,1595624451,67,4.25,-54.38,83.1,1.81
495,san patricio,75,MX,1595624451,74,19.22,-104.7,86,17.22
496,pangody,43,RU,1595624451,81,65.85,74.49,49.73,9.91
497,jacareacanga,52,BR,1595624451,48,-6.22,-57.75,89.08,2.21
498,omboue,74,GA,1595624451,78,-1.57,9.26,74.23,9.64
499,arman,57,RU,1595624452,80,59.7,150.17,57.79,4.07
500,nanortalik,100,GL,1595624452,89,60.14,-45.24,45.99,9.51
501,adrar,13,MR,1595624452,14,20.5,-10.07,101.8,7.4
502,saryozek,77,KZ,1595624452,70,44.36,77.98,64.98,3.36
503,vagur,99,FO,1595624453,96,61.47,-6.81,52.65,10.85
504,redlands,5,US,1595624453,32,34.06,-117.18,88,8.05
505,ochakiv,0,UA,1595624453,72,46.61,31.55,68,5.95
506,talaya,88,RU,1595624453,47,61.38,152.75,68.36,2.39
507,dudinka,0,RU,1595624402,81,69.41,86.18,48.2,13.42
508,xiamen,99,CN,1595624454,79,24.48,118.08,86,6.71
509,yeppoon,90,AU,1595624454,100,-23.13,150.73,55.4,8.48
510,ust-nera,1,RU,1595624454,33,64.57,143.2,80.04,3.22
511,thornhill,75,GB,1595624430,93,55.23,-3.77,61,9.17
512,antananarivo,75,MG,1595624455,87,-18.91,47.54,51.8,10.29
513,vostok,45,RU,1595624455,99,46.49,135.88,57.78,2.39
514,itoman,75,JP,1595624455,94,26.12,127.67,82.4,8.05
515,atar,0,MR,1595624455,20,20.52,-13.05,101.86,10.56
516,tromso,100,NO,1595624456,77,69.65,18.96,59,5.82
517,aripuana,67,BR,1595624456,41,-9.17,-60.63,89.35,1.48
518,tenerife,96,CO,1595624456,72,9.9,-74.86,84.25,4.81
519,udachnyy,100,RU,1595624457,71,66.42,112.4,57.2,6.71
520,dubti,78,ET,1595624457,46,11.74,41.09,88.47,11.9
521,altay,0,CN,1595624457,49,47.87,88.12,63.34,4.18
522,mozarlandia,0,BR,1595624457,31,-14.74,-50.57,81.84,0.76
523,ishigaki,100,JP,1595624458,80,24.34,124.16,85.19,13.13
524,filimonovo,31,RU,1595624458,83,56.2,95.46,49.77,1.36
525,khandagayty,40,RU,1595624458,72,50.73,92.05,57.85,2.15
526,mogadishu,56,SO,1595624295,76,2.04,45.34,77.11,22.06
527,dzhebariki-khaya,0,RU,1595624459,62,62.22,135.8,68.31,2.28
528,asyut,0,EG,1595624459,40,27.18,31.18,89.6,11.41
529,azua,75,DO,1595624405,74,18.45,-70.73,86,11.41
530,alekseyevsk,0,RU,1595624460,93,57.84,108.35,50.5,3.42
531,lengshuitan,99,CN,1595624460,82,26.41,111.6,80.01,3.67
532,sheopur,61,IN,1595624460,74,25.67,76.7,80.42,4.56
533,kawalu,89,ID,1595624460,92,-7.38,108.21,68.95,1.52
534,sandwick,57,GB,1595624461,82,60,-1.25,55.4,9.17
535,bagdarin,0,RU,1595624461,87,54.43,113.6,56.7,2.51
536,channel-port aux basques,0,CA,1595624461,75,47.57,-59.14,65.88,14.74
537,hualmay,29,PE,1595624462,70,-11.1,-77.61,66.15,13.98
538,thinadhoo,100,MV,1595624462,74,0.53,72.93,81.59,4.63
539,namibe,0,AO,1595624462,86,-15.2,12.15,67.32,3.98
540,qasigiannguit,100,GL,1595624463,87,68.82,-51.19,48.2,9.17
541,severnyy,0,RU,1595624463,55,50.68,36.55,62.6,3.87
542,opuwo,0,NA,1595624463,38,-18.06,13.84,55.33,7.02
543,muisne,75,EC,1595624463,74,0.6,-80.03,82.4,6.93
544,petropavlovsk-kamchatskiy,90,RU,1595624267,100,53.05,158.65,51.8,2.24
545,jiuquan,0,CN,1595624464,42,39.74,98.52,67.24,7.49
546,maxixe,21,MZ,1595624464,79,-23.86,35.35,65.14,9.73
547,sobreira,0,PT,1595624464,10,41.52,-7.8,71.01,5.01
548,norman wells,20,CA,1595624330,42,65.28,-126.83,68,11.41
549,siparia,20,TT,1595624407,55,10.13,-61.5,89.6,11.41
550,tazovskiy,0,RU,1595624465,80,67.47,78.7,47.07,10.47
551,pacific grove,75,US,1595624465,68,36.62,-121.92,66.99,11.41
552,monrovia,75,LR,1595624466,94,6.3,-10.8,77,14.03
553,union,90,US,1595624466,78,40.63,-74.27,84,6.93
554,puerto del rosario,20,ES,1595624466,65,28.5,-13.86,77,16.11
555,havre-saint-pierre,1,CA,1595624330,72,50.23,-63.6,68,16.11
556,likasi,0,CD,1595624467,50,-10.98,26.73,52.68,3.47
557,chumikan,8,RU,1595624467,78,54.72,135.31,52.72,8.08
558,morinville,20,CA,1595624467,67,53.8,-113.65,64.99,4.7
