City_ID,City,Cloudiness,Country,Date,Humidity,Lat,Lng,Max Temp,Wind Speed
0,provideniya,90,RU,1596061967,87,64.38,-173.3,50,8.95
1,kurilsk,46,RU,1596062097,81,45.23,147.88,61.52,6.76
2,mariinsk,82,RU,1596062097,94,56.21,87.75,56.1,3.91
3,punta arenas,99,CL,1596061931,80,-53.15,-70.92,39.2,13.87
4,castro,100,BR,1596062097,97,-24.79,-50.01,53.74,7.7
5,karratha,0,AU,1596062097,38,-20.74,116.85,65.35,11.32
6,mataura,100,NZ,1596062098,78,-46.19,168.86,52.03,3.04
7,forestville,1,US,1596062098,40,38.85,-76.88,93.99,9.17
8,atuona,6,PF,1596062098,75,-9.8,-139.03,78.98,20.54
9,bluff,100,NZ,1596062098,72,-46.6,168.33,53.42,12.46
10,la paz,20,BO,1596062099,40,-16.5,-68.15,53.6,8.05
11,ushuaia,40,AR,1596061956,94,-54.8,-68.3,39.2,32.21
12,vaini,20,TO,1596062099,83,-21.2,-175.2,69.8,16.11
13,kruisfontein,0,ZA,1596061994,78,-34,24.73,52.93,12.37
14,lodja,0,CD,1596062099,42,-3.48,23.43,73.13,0.43
15,san cristobal,40,VE,1596062100,52,7.77,-72.22,89.6,13.87
16,letlhakane,0,BW,1596062100,43,-21.42,25.58,53.13,8.41
17,ponta do sol,40,PT,1596062100,60,32.67,-17.1,71.6,9.17
18,tuktoyaktuk,75,CA,1596062100,76,69.45,-133.04,53.6,6.93
19,mitsamiouli,71,KM,1596062100,82,-11.38,43.28,76.86,10.69
20,touros,40,BR,1596062084,94,-5.2,-35.46,73.4,8.05
21,severo-kurilsk,98,RU,1596061962,81,50.68,156.12,55.76,13.4
22,busselton,82,AU,1596062101,94,-33.65,115.33,46,6.58
23,kyshtovka,0,RU,1596062073,95,56.55,76.63,45.77,6.82
24,comodoro rivadavia,49,AR,1596062101,60,-45.87,-67.5,41,9.17
25,yellowknife,75,CA,1596062101,46,62.46,-114.35,73.4,8.05
26,turinsk,100,RU,1596061983,90,58.05,63.7,53.44,6.13
27,ancud,99,CL,1596062102,87,-41.87,-73.82,45,3.36
28,jardim,62,BR,1596062102,70,-21.48,-56.14,56.3,4.54
29,rakaia,93,NZ,1596062102,59,-43.75,172.02,55.99,7
30,klaksvik,96,FO,1596062103,87,62.23,-6.59,46.4,11.41
31,hilo,1,US,1596062103,54,19.73,-155.09,82.4,6.93
32,roald,62,NO,1596062103,87,62.58,6.13,57.2,6.93
33,kieta,85,PG,1596062103,64,-6.22,155.63,84.87,0.69
34,bethel,1,US,1596062103,58,41.37,-73.41,89.01,10.29
35,laguna,5,US,1596062104,14,38.42,-121.42,98.01,9.17
36,marfino,75,RU,1596062104,82,55.7,37.38,68,11.18
37,mankato,1,US,1596062104,57,44.16,-94,82.99,6.93
38,hermanus,14,ZA,1596061809,80,-34.42,19.23,59,1.01
39,thinadhoo,50,MV,1596062105,76,0.53,72.93,82.99,17.38
40,kapaa,20,US,1596062105,69,22.08,-159.32,82.4,18.34
41,miyako,2,JP,1596062105,75,39.64,141.95,70.86,7.09
42,port blair,98,IN,1596062105,81,11.67,92.75,80.91,18.14
43,naze,20,JP,1596062105,89,28.37,129.48,84.2,6.93
44,saint-philippe,7,RE,1596062106,82,-21.36,55.77,66.2,3.36
45,urumqi,91,CN,1596062106,60,43.8,87.6,71.6,6.71
46,solnechnyy,13,RU,1596062106,68,50.72,136.63,80.02,2.55
47,salina cruz,99,MX,1596062106,65,16.17,-95.2,87.71,8.97
48,saint-joseph,19,RE,1596062106,82,-21.37,55.62,66.2,3.36
49,rikitea,69,PF,1596062107,84,-23.12,-134.97,73.22,14.47
50,brae,99,GB,1596062107,93,60.4,-1.35,51.8,18.34
51,ahipara,100,NZ,1596061992,76,-35.17,173.17,59.11,12.57
52,tasiilaq,70,GL,1596062107,70,65.61,-37.64,44.6,8.05
53,dikson,61,RU,1596062108,75,73.51,80.55,49.59,8.01
54,lorengau,19,PG,1596062108,64,-2.02,147.27,84.34,5.84
55,georgetown,20,MY,1596062108,88,5.41,100.34,80.6,2.24
56,pevek,100,RU,1596062108,93,69.7,170.31,37.15,3.87
57,kodiak,1,US,1596062109,63,57.79,-152.41,64.4,5.82
58,guerrero negro,3,MX,1596062109,54,27.98,-114.06,78.89,17.34
59,amapa,93,BR,1596061969,80,1,-52,76.24,3.02
60,roebourne,0,AU,1596062109,31,-20.78,117.13,65.16,11.1
61,butaritari,29,KI,1596062110,74,3.07,172.79,82.98,18.16
62,mbulu,26,TZ,1596062110,84,-3.85,35.53,54.7,14.2
63,cabo san lucas,40,MX,1596062110,57,22.89,-109.91,89.6,18.34
64,asheville,40,US,1596061816,74,35.6,-82.55,80.6,6.93
65,necochea,0,AR,1596062111,79,-38.55,-58.74,46,1.99
66,westport,1,US,1596062111,58,41.14,-73.36,86,13.87
67,prince rupert,1,CA,1596062111,60,54.32,-130.32,68,5.82
68,bredasdorp,2,ZA,1596062111,76,-34.53,20.04,57.2,10.29
69,ceres,1,US,1596062080,18,37.59,-120.96,99,13.87
70,souillac,40,MU,1596062112,78,-20.52,57.52,71.6,11.41
71,skibbereen,75,IE,1596062112,93,51.55,-9.27,59,12.75
72,skovorodino,1,RU,1596061924,86,53.98,123.92,72.18,2.13
73,zaton,90,RU,1596062112,93,53.29,83.81,59,11.18
74,tolcsva,99,HU,1596062113,88,48.28,21.45,69.8,4.7
75,sobolevo,21,RU,1596062113,92,54.43,31.9,57.2,8.1
76,yamachiche,1,CA,1596062148,65,46.27,-72.83,79,10.29
77,haines junction,39,CA,1596062148,42,60.75,-137.51,73.47,2.77
78,sakaiminato,40,JP,1596062149,94,35.55,133.23,78.8,3.36
79,angoche,40,MZ,1596062149,82,-16.23,39.91,70.5,8.75
80,strelka,37,RU,1596062149,80,58.07,93.03,59.54,5.39
81,lasa,40,IT,1596062149,88,46.62,10.7,62.6,5.82
82,antalaha,5,MG,1596062149,82,-14.9,50.28,68.45,7.56
83,ishigaki,75,JP,1596062150,89,24.34,124.16,84.2,12.75
84,albany,19,US,1596062150,68,42.6,-73.97,80.01,3
85,jamestown,40,US,1596062054,78,42.1,-79.24,75.99,9.17
86,te anau,100,NZ,1596062006,82,-45.42,167.72,50.9,3.76
87,burriana,0,ES,1596062151,84,39.89,-0.09,78.01,3.53
88,barcelos,0,PT,1596061919,93,41.54,-8.62,73,1.01
89,qaanaaq,1,GL,1596061963,68,77.48,-69.36,43.21,3.11
90,port elizabeth,0,ZA,1596062151,67,-33.92,25.57,57.2,10.29
91,rocky mountain house,7,CA,1596062151,72,52.37,-114.92,75.06,9.22
92,cape town,75,ZA,1596061863,93,-33.93,18.42,57,6.93
93,vanavara,60,RU,1596062132,77,60.34,102.28,55.83,9.53
94,ambajogai,100,IN,1596062152,84,18.73,76.38,74.32,7.11
95,tura,100,IN,1596062152,99,25.52,90.22,74.17,5.97
96,new norfolk,16,AU,1596062152,76,-42.78,147.06,48,3.53
97,hobart,20,AU,1596061875,80,-42.88,147.33,48,3.36
98,khatanga,100,RU,1596062153,60,71.97,102.5,59.85,12.71
99,aksarka,92,RU,1596062153,92,66.56,67.8,45.95,7.25
100,lebu,100,CL,1596062153,71,-37.62,-73.65,45.18,2.19
101,tilichiki,100,RU,1596062153,92,60.47,166.1,53.74,2.75
102,ossora,88,RU,1596062154,82,59.24,163.07,59.83,6.11
103,port hedland,0,AU,1596061913,32,-20.32,118.57,55.4,6.93
104,dingle,71,PH,1596062154,87,11,122.67,79.25,7.58
105,mar del plata,0,AR,1596061590,87,-38,-57.56,48.99,4.7
106,horta,40,PT,1596062154,88,38.53,-28.63,75.2,16.11
107,okhotsk,99,RU,1596062063,85,59.38,143.3,57.4,14.9
108,ostersund,98,SE,1596062043,100,63.18,14.64,53.6,2.24
109,bocas del toro,93,PA,1596061950,67,9.33,-82.25,72,5.59
110,avarua,42,CK,1596062155,73,-21.21,-159.78,73.4,9.17
111,lata,0,PT,1596062156,69,40.16,-8.33,73,2.68
112,talaya,25,RU,1596062156,56,61.38,152.75,48.25,17.43
113,les cayes,0,HT,1596062156,66,18.2,-73.75,86.27,3.8
114,upernavik,44,GL,1596061964,88,72.79,-56.15,43.03,5.86
115,airai,48,TL,1596061964,54,-8.93,125.41,56.55,3.42
116,cayenne,63,GF,1596062157,78,4.93,-52.33,82.4,4.7
117,black river,20,JM,1596062157,66,18.03,-77.85,89.01,21.92
118,mahon,0,ES,1596062157,88,39.89,4.27,77,6.93
119,faanui,100,PF,1596062157,78,-16.48,-151.75,79.2,18.12
120,svetlogorsk,8,BY,1596062157,93,52.63,29.73,59.86,4.32
121,bogashevo,20,RU,1596062158,100,56.37,85.14,59,6.71
122,paamiut,88,GL,1596062158,91,61.99,-49.67,47.82,1.63
123,carnarvon,0,AU,1596062097,100,-24.87,113.63,51.8,8.05
124,radomsko,7,PL,1596062158,100,51.07,19.44,64.99,0.89
125,cherskiy,14,RU,1596062158,60,68.75,161.3,48.72,16.26
126,mednogorsk,0,RU,1596062159,70,51.41,57.59,60.69,2.77
127,san patricio,82,MX,1596062159,64,19.22,-104.7,85.46,5.68
128,bubaque,100,GW,1596062159,86,11.28,-15.83,78.46,20.04
129,broken hill,90,AU,1596061871,93,-31.95,141.43,46.4,8.05
130,kavieng,3,PG,1596062160,68,-2.57,150.8,83.57,5.37
131,komsomolskiy,0,UZ,1596061980,44,40.43,71.72,75.2,4.7
132,harper,81,LR,1596062160,86,4.38,-7.72,75.6,9.64
133,longyearbyen,20,SJ,1596062160,71,78.22,15.64,57.2,5.82
134,ilinskiy,100,RU,1596062161,73,55.62,38.12,69.8,4.47
135,moron,0,AR,1596062161,59,-34.65,-58.62,50,1.5
136,mahebourg,40,MU,1596062161,78,-20.41,57.7,71.6,11.41
137,port alfred,0,ZA,1596062162,71,-33.59,26.89,58.15,16.82
138,falkenstein,25,DE,1596062162,63,50.48,12.37,57,1.01
139,rosarito,5,MX,1596062162,60,32.33,-117.03,79,16.11
140,estelle,75,US,1596062162,74,29.85,-90.11,90,13.87
141,las vegas,1,US,1596061803,3,36.17,-115.14,111.99,9.17
142,uttaradit,99,TH,1596062163,98,17.67,100.5,72,0.85
143,vanimo,10,PG,1596062163,73,-2.67,141.3,82.2,6.31
144,gariaband,100,IN,1596062163,82,20.64,82.06,77.43,3.56
145,sembabule,12,UG,1596062164,59,-0.08,31.46,66.56,2.55
146,marrakesh,75,MA,1596062107,48,31.63,-8.01,86,4.7
147,ust-omchug,83,RU,1596062164,54,61.15,149.63,50.92,11.5
148,dutlwe,0,BW,1596062164,52,-23.98,23.9,48.16,4.88
149,arles,0,FR,1596062165,65,43.68,4.63,78.8,2.24
150,sfantu gheorghe,0,RO,1596062165,83,45.87,25.78,66,0.34
151,chokurdakh,75,RU,1596062165,63,70.63,147.92,45.43,9.55
152,lorut,13,AM,1596062165,92,40.94,44.77,55.62,0.51
153,vila velha,40,BR,1596062165,78,-20.33,-40.29,75.99,4.7
154,alofi,75,NU,1596062166,65,-19.06,-169.92,77,12.75
155,coquimbo,1,CL,1596062063,87,-29.95,-71.34,53.6,10.29
156,bambous virieux,40,MU,1596062166,78,-20.34,57.76,71.6,11.41
157,izvestkovyy,0,RU,1596062166,68,48.98,131.55,77.32,1.83
158,sambava,4,MG,1596062167,86,-14.27,50.17,69.22,11.14
159,chicama,4,PE,1596062167,72,-7.84,-79.15,63.82,7.09
160,caorle,45,IT,1596062167,84,45.6,12.88,78.01,5.32
161,namibe,68,AO,1596062168,83,-15.2,12.15,61.97,5.3
162,barreiras,13,BR,1596062168,42,-12.15,-44.99,73.99,3.71
163,east london,0,ZA,1596062168,70,-33.02,27.91,59.41,9.42
164,bovenden,35,DE,1596062168,77,51.58,9.93,55,2.42
165,isiro,83,CD,1596062168,94,2.77,27.62,67.12,1.28
166,dhrangadhra,100,IN,1596062169,78,22.98,71.47,83.75,9.8
167,saskylakh,0,RU,1596061955,66,71.92,114.08,54.12,4.59
168,awjilah,0,LY,1596062169,39,29.11,21.29,80.83,9.44
169,geraldton,0,AU,1596062169,76,-28.77,114.6,50,12.75
170,olafsvik,86,IS,1596062170,82,64.89,-23.71,51.19,4.97
171,mellieha,0,MT,1596062170,83,35.96,14.36,80.01,3.36
172,neryungri,100,RU,1596062128,89,56.67,124.65,61.7,5.03
173,yulara,0,AU,1596062170,42,-25.24,130.99,44.6,10.29
174,pangai,40,TO,1596062171,64,-19.8,-174.35,75.2,12.75
175,iqaluit,20,CA,1596062171,43,63.75,-68.51,71.6,17.22
176,maniitsoq,46,GL,1596062171,76,65.42,-52.9,48.92,4.25
177,roma,75,US,1596061916,78,43.21,-75.46,73.4,4.7
178,bengkulu,79,ID,1596062171,89,-3.8,102.27,73.31,4.34
179,karagaylinskiy,46,RU,1596062172,93,54.17,86.55,57.96,11.18
180,puerto ayora,20,EC,1596062172,64,-0.74,-90.35,75.2,21.92
181,huarmey,3,PE,1596062172,75,-10.07,-78.15,62.58,8.25
182,tiksi,100,RU,1596062172,86,71.69,128.87,40.01,8.12
183,sokolo,5,ML,1596062173,54,14.73,-6.12,84.81,4.92
184,jinchang,3,CN,1596062173,43,38.5,102.17,70.43,2.95
185,ribeira grande,40,PT,1596062173,88,38.52,-28.7,75.2,16.11
186,niquelandia,11,BR,1596062173,36,-14.47,-48.46,73.71,6.29
187,ulaangom,35,MN,1596062174,74,49.98,92.07,59.65,1.05
188,jumla,100,NP,1596062007,71,29.27,82.18,61.86,0.63
189,port-gentil,75,GA,1596062174,83,-0.72,8.78,77,14.32
190,pignon,1,HT,1596062174,76,19.33,-72.12,78.42,15.99
191,broome,90,US,1596062174,83,42.25,-75.83,70,3.36
192,ambulu,2,ID,1596062175,82,-8.35,113.61,66.4,3.67
193,talnakh,53,RU,1596061984,71,69.49,88.4,57.2,8.95
194,constitucion,95,CL,1596062071,70,-35.33,-72.42,49.35,5.1
195,zheleznodorozhnyy,100,RU,1596062176,73,55.75,38,69.8,4.47
196,gambela,96,ET,1596062176,92,8.25,34.58,68.95,2.64
197,thompson,40,CA,1596062177,53,55.74,-97.86,75.2,5.82
198,gaziantep,0,TR,1596062177,57,37.06,37.38,77,10.58
199,turka,80,UA,1596062177,96,49.15,23.03,64,10
200,palana,82,RU,1596062177,86,59.12,159.97,51.89,7.43
201,grevesmuhlen,70,DE,1596062177,75,53.87,11.18,59,5.01
202,flinders,0,AU,1596061976,89,-34.58,150.86,55,7
203,neiafu,40,TO,1596062178,64,-18.65,-173.98,71.6,8.05
204,vasyurinskaya,0,RU,1596062178,94,45.12,39.42,70,6.71
205,los llanos de aridane,90,ES,1596062178,73,28.66,-17.92,73.4,16.11
206,coihaique,99,CL,1596062178,74,-45.58,-72.07,35.6,1.66
207,chuy,0,UY,1596062179,81,-33.7,-53.46,43.41,3.42
208,pachino,0,IT,1596062179,56,36.72,15.09,79,4.7
209,mezen,1,RU,1596062179,68,65.85,44.24,53.94,10.36
210,karlshamn,78,SE,1596062179,87,56.17,14.86,57.2,12.75
211,oudtshoorn,0,ZA,1596062179,81,-33.59,22.2,53.6,8.05
212,san isidro,90,PE,1596062180,72,-12.12,-77.05,60.8,8.05
213,guilin,87,CN,1596062180,94,25.28,110.29,77,1.5
214,nouadhibou,14,MR,1596062180,83,20.93,-17.03,71.6,17.22
215,boromo,75,BF,1596062180,84,11.75,-2.93,76.87,3.27
216,mildura,90,AU,1596061909,100,-34.2,142.15,41,2.24
217,kerema,100,PG,1596062181,88,-7.96,145.78,77.79,12.35
218,hithadhoo,66,MV,1596062181,81,-0.6,73.08,82.09,14.99
219,eenhana,0,NA,1596062181,41,-17.47,16.33,59,1.12
220,goderich,22,CA,1596062181,75,43.75,-81.72,75,1.83
221,norman wells,75,CA,1596062181,72,65.28,-126.83,64.4,11.41
222,victoria,20,HK,1596061887,83,22.29,114.16,86,3.36
223,beloha,2,MG,1596062182,94,-25.17,45.05,61.36,5.86
224,alim,96,PH,1596062182,79,9.56,122.49,82.13,11.32
225,price,1,US,1596061923,13,39.6,-110.81,93.2,11.41
226,nikolskoye,1,RU,1596062183,77,59.7,30.79,59,6.71
227,santa rosa,100,PH,1596062183,100,14.31,121.11,77,2.77
228,sisimiut,96,GL,1596062184,70,66.94,-53.67,48.09,6.06
229,clones,100,IE,1596062184,90,54.18,-7.23,57.99,5.99
230,puerto escondido,75,MX,1596062184,66,15.85,-97.07,84.2,5.82
231,richards bay,85,ZA,1596062184,75,-28.78,32.04,65.97,3.78
232,sabalgarh,99,IN,1596062185,84,26.25,77.4,80.73,2.86
233,alexandria,40,EG,1596062072,78,31.22,29.96,78.8,6.93
234,mumford,93,GH,1596062003,90,5.26,-0.76,74.26,10.65
235,nemuro,3,JP,1596062185,88,43.32,145.57,63.39,12.64
236,zlitan,0,LY,1596062186,72,32.47,14.57,77.81,6.91
237,sao joao da barra,40,BR,1596062186,78,-21.64,-41.05,75.2,13.87
238,port said,0,EG,1596062047,78,31.26,32.28,80.6,5.82
239,kaitangata,100,NZ,1596062186,80,-46.28,169.85,51.01,1.99
240,anzio,5,IT,1596062186,88,41.49,12.62,78.01,2.24
241,carrollton,5,US,1596062052,44,32.95,-96.89,93.2,12.75
242,jutai,54,BR,1596062187,75,-5.18,-68.9,78.96,0.31
243,jianhu,100,CN,1596062187,78,29.98,120.57,82.4,4.47
244,lagoa,10,PT,1596062017,91,39.05,-27.98,73.89,26.08
245,whitehorse,90,CA,1596062187,59,60.72,-135.05,64.99,8.05
246,sistranda,75,NO,1596061987,87,63.73,8.83,57.2,10.29
247,batticaloa,97,LK,1596062188,73,7.71,81.69,79.39,6.42
248,biskamzha,92,RU,1596062188,88,53.45,89.53,55.44,2.01
249,stromness,97,GB,1596062188,81,58.97,-3.3,52,13.87
250,dumas,1,US,1596062189,33,35.87,-101.97,95,5.26
251,oranjemund,0,NA,1596062189,85,-28.55,16.43,54.43,14.07
252,tiarei,75,PF,1596062189,69,-17.53,-149.33,82.4,19.46
253,butembo,18,CD,1596062189,91,0.15,29.28,56.86,2.89
254,qaqortoq,28,GL,1596062189,71,60.72,-46.03,57.2,6.93
255,civita castellana,0,IT,1596062189,65,42.3,12.41,80.01,2.48
256,shellbrook,40,CA,1596062190,54,53.22,-106.4,84.2,12.75
257,cap malheureux,42,MU,1596062190,78,-19.98,57.61,71.01,4
258,sur,93,OM,1596062190,54,22.57,59.53,92.07,7.47
259,clyde river,75,CA,1596061973,93,70.47,-68.59,41,10.29
260,caceres,0,ES,1596062190,28,39.52,-6.37,86,1.99
261,jalu,0,LY,1596062191,25,29.03,21.55,84.16,8.99
262,krasnoselkup,57,RU,1596062105,61,65.7,82.47,56.01,6.04
263,wexford,100,IE,1596062191,98,52.33,-6.46,60.01,7
264,fez,40,MA,1596062176,54,34.04,-5,84.2,12.75
265,barrow,90,US,1596061964,75,71.29,-156.79,46.4,21.92
266,salekhard,68,RU,1596062192,88,66.53,66.6,47.23,6.17
267,moussoro,61,TD,1596062192,44,13.64,16.49,88.97,17.11
268,poso,99,ID,1596062192,68,-1.4,120.75,79.29,6.38
269,kagoro,62,NG,1596062193,98,9.6,8.38,68.13,1.07
270,pacific grove,1,US,1596062007,56,36.62,-121.92,71.6,10.29
271,luderitz,0,NA,1596062193,71,-26.65,15.16,55.4,9.17
272,sao filipe,51,CV,1596061995,86,14.9,-24.5,77.67,5.57
273,noyabrsk,5,RU,1596061923,94,63.2,75.45,46.51,4.52
274,batemans bay,0,AU,1596062194,100,-35.72,150.18,48.99,3.24
275,bilibino,80,RU,1596062194,43,68.05,166.44,53.71,5.41
276,havre-saint-pierre,90,CA,1596062194,93,50.23,-63.6,59,12.75
277,sanming,56,CN,1596062194,78,26.25,117.62,78.57,1.79
278,hurghada,4,EG,1596062139,30,27.26,33.81,95,8.05
279,baie-comeau,90,CA,1596062195,87,49.22,-68.15,60.8,12.75
280,kargil,28,IN,1596062195,55,34.57,76.1,56.34,6.04
281,ilulissat,11,GL,1596062195,75,69.22,-51.1,44.6,4.7
282,mamallapuram,75,IN,1596062196,94,12.63,80.17,80.6,4.7
283,shahrud,14,IR,1596062196,44,36.42,54.98,76.93,2.66
284,mehamn,0,NO,1596062196,81,71.04,27.85,53.6,10.29
285,kawalu,15,ID,1596062196,92,-7.38,108.21,64.04,1.3
286,yalvac,0,TR,1596062196,30,38.3,31.18,68.86,4.79
287,kanepi,1,EE,1596062196,93,57.98,26.76,55.99,4.7
288,boguchar,0,RU,1596062197,45,49.94,40.55,69.35,4.63
289,jand,31,PK,1596062197,50,33.43,72.02,91.62,10.36
290,inverell,1,AU,1596062197,87,-29.78,151.12,53.01,4.5
291,fortuna,25,US,1596062197,75,40.6,-124.16,70,4
292,humaita,0,BR,1596062198,44,-7.51,-63.02,81.73,2.64
293,kahului,40,US,1596062198,45,20.89,-156.47,86,23.04
294,narsaq,17,GL,1596061971,71,60.92,-46.05,57.2,6.93
295,honiara,75,SB,1596062198,100,-9.43,159.95,75.2,4.7
296,ostrovnoy,0,RU,1596061996,90,68.05,39.51,48.88,13.09
297,leningradskiy,15,RU,1596062199,70,69.38,178.42,43.41,13.09
298,tonantins,55,BR,1596062199,72,-2.87,-67.8,79.16,1.07
299,fort nelson,75,CA,1596062199,68,58.81,-122.7,64.4,10.29
300,atasu,0,KZ,1596062199,62,48.68,71.64,57.43,4.47
301,prainha,13,BR,1596062200,58,-1.8,-53.48,80.42,4.16
302,pisco,7,PE,1596062200,68,-13.7,-76.22,64.4,6.93
303,grand gaube,42,MU,1596062200,78,-20.01,57.66,71.01,4
304,ganzhou,89,CN,1596062200,88,28.82,115.43,80.92,3.56
305,morro bay,1,US,1596062201,50,35.37,-120.85,84,13.87
306,datong,99,CN,1596062201,69,40.09,113.29,71.73,4.9
307,yangjiang,96,CN,1596062201,85,21.85,111.97,80.96,4.76
308,esperance,0,AU,1596062201,93,-33.87,121.9,46.4,14.99
309,sibolga,100,ID,1596062201,71,1.74,98.78,76.53,4.14
310,dalvik,74,IS,1596062202,71,65.97,-18.53,51.8,6.93
311,meulaboh,95,ID,1596062202,77,4.14,96.13,77.54,4.5
312,auki,87,SB,1596062202,65,-8.77,160.7,85.48,2.1
313,bijawar,100,IN,1596062202,86,24.63,79.5,78.35,1.57
314,puri,40,IN,1596062202,88,19.8,85.85,82.4,3.36
315,porto murtinho,62,BR,1596062203,41,-21.7,-57.88,56.19,6.13
316,fuling,60,CN,1596062203,80,29.7,107.39,75.92,2.71
317,kjollefjord,0,NO,1596062203,81,70.95,27.35,53.6,10.29
318,suntar,91,RU,1596062203,73,62.14,117.63,56.73,4.25
319,mecca,80,SA,1596062203,54,21.43,39.83,85.6,5.39
320,araouane,15,ML,1596062204,36,18.9,-3.53,92.39,6.46
321,aleksandrov gay,0,RU,1596062204,46,50.15,48.57,68.97,1.16
322,arraial do cabo,75,BR,1596062204,83,-22.97,-42.03,71.6,12.75
323,krasnovishersk,100,RU,1596062204,96,60.41,57.08,53.76,2.71
324,mareeba,14,AU,1596062205,83,-17,145.43,60.01,3.18
325,lagos,20,NG,1596062205,88,6.58,3.75,77,5.82
326,ginda,100,IN,1596062205,90,30.69,78.49,64.65,0.78
327,krasnyye baki,96,RU,1596062205,93,57.13,45.16,64.11,6.69
328,la ronge,75,CA,1596062206,48,55.1,-105.28,86,4.7
329,isangel,60,VU,1596061961,71,-19.55,169.27,77.72,15.35
330,corinto,0,GR,1596062206,36,37.94,22.96,80.01,1.99
331,guatire,75,VE,1596062206,79,10.48,-66.54,84.2,3.36
332,san andres,40,CO,1596062206,74,12.58,-81.7,86,13.87
333,bafq,0,IR,1596062207,20,31.61,55.41,78.53,3.69
334,northam,93,GB,1596061984,89,51.03,-4.22,57.99,1.01
335,padang,99,ID,1596062207,73,-0.95,100.35,77.31,4.36
336,ponta delgada,75,PT,1596062098,94,37.73,-25.67,71.6,9.17
337,nanortalik,57,GL,1596062207,90,60.14,-45.24,46.71,7.76
338,yarmouth,1,US,1596062208,57,41.71,-70.23,80.6,11.41
339,umm lajj,42,SA,1596062208,74,25.02,37.27,86.47,15.7
340,port-cartier,90,CA,1596062208,100,50.03,-66.87,60.01,10.29
341,tuatapere,100,NZ,1596062208,73,-46.13,167.68,53.76,7.96
342,pecos,1,US,1596062208,17,31.42,-103.49,102.2,9.17
343,yumen,0,CN,1596062208,34,40.28,97.2,65.35,2.98
344,aykhal,100,RU,1596061963,71,66,111.5,51.8,4.47
345,samarai,96,PG,1596061957,83,-10.62,150.67,76.95,17.07
346,mount isa,0,AU,1596062209,38,-20.73,139.5,60.8,10.29
347,nyanguge,20,TZ,1596062209,73,-2.55,33.2,69.8,5.82
348,songjianghe,100,CN,1596062209,95,42.19,127.48,65.48,4.79
349,prestea,84,GH,1596062210,92,5.43,-2.14,71.58,3.11
350,basco,100,PH,1596062210,77,20.45,121.97,84.97,15.64
351,janauba,18,BR,1596062083,45,-15.8,-43.31,72.36,8.93
352,espinal,20,CO,1596062210,58,4.15,-74.88,82.4,6.93
353,muros,0,ES,1596062211,73,42.78,-9.06,73.99,1.01
354,hun,0,LY,1596062211,53,29.13,15.95,76.1,7.61
355,saint george,1,US,1596062211,6,37.1,-113.58,107.01,12.75
356,mega,52,ET,1596062211,77,4.05,38.3,60.58,10.49
357,codrington,56,AU,1596062211,87,-38.27,141.97,46.63,5.32
358,arak,54,IR,1596062212,31,34.09,49.69,72.77,0.27
359,sept-iles,90,CA,1596061915,100,50.2,-66.38,60.01,10.29
360,alta floresta,2,BR,1596062126,34,-9.88,-56.09,77.31,3.06
361,tromso,97,NO,1596062212,55,69.65,18.96,66.2,11.41
362,halifax,75,CA,1596062199,69,44.65,-63.57,81,5.82
363,nizhniy kuranakh,100,RU,1596062213,93,58.84,125.49,57.18,3.8
364,muisne,68,EC,1596062176,86,0.6,-80.03,73.98,9.42
365,hamilton,20,US,1596062213,48,39.18,-84.53,91.99,8.05
366,fort saint james,99,CA,1596062213,30,54.43,-124.25,76.6,2.24
367,cidreira,3,BR,1596062214,75,-30.18,-50.21,46.29,4.18
368,hami,82,CN,1596062214,19,42.8,93.45,78.08,8.59
369,tigil,82,RU,1596061984,74,57.8,158.67,59.23,9.26
370,bathsheba,75,BB,1596061996,83,13.22,-59.52,82.4,19.46
371,aguimes,75,ES,1596062215,69,27.91,-15.45,73.4,26.4
372,florence,0,IT,1596062201,64,43.77,11.25,79,2.24
373,tezu,100,IN,1596062216,86,27.92,96.17,74.23,2.91
374,santo antonio do ica,52,BR,1596062216,73,-3.1,-67.94,79,1.25
375,paka,100,MY,1596062216,94,4.64,103.44,77,2.24
376,curumani,50,CO,1596062216,80,9.2,-73.54,82.9,1.28
377,payakumbuh,95,ID,1596062216,85,-0.22,100.63,68.88,0.2
378,batagay-alyta,0,RU,1596062216,52,67.8,130.41,53.53,4.16
379,belgrade,0,RS,1596061932,50,44.8,20.47,78.8,3.36
380,mabamba,0,TZ,1596062217,56,-3.6,30.5,63.72,2.48
381,obigarm,0,TJ,1596062217,31,38.72,69.71,66.54,4.23
382,gualeguaychu,0,AR,1596062033,61,-33.01,-58.52,48,2.3
383,dicabisagan,99,PH,1596062218,85,17.08,122.42,78.85,3.27
384,marawi,100,PH,1596061978,92,8,124.29,75,5.99
385,poronaysk,7,RU,1596062218,76,49.22,143.12,69.93,3.71
386,tabuk,99,PH,1596062218,90,17.42,121.44,75.65,2.17
387,maragogi,84,BR,1596062218,76,-9.01,-35.22,74.95,13.91
388,campbellsville,40,US,1596062219,58,37.34,-85.34,89.01,2.75
389,trinidad,20,BO,1596062219,43,-14.83,-64.9,71.6,9.17
390,caravelas,0,BR,1596062219,75,-17.71,-39.25,69.04,3.38
391,pucallpa,40,PE,1596062219,69,-8.38,-74.55,82.4,2.24
392,ankazobe,40,MG,1596062220,93,-18.32,47.12,59,3.36
393,aswan,37,EG,1596062117,24,24.09,32.91,96.31,7.7
394,poum,31,NC,1596062220,87,-20.23,164.02,73.78,22.44
395,bagan,0,RU,1596062220,81,54.1,77.66,49.87,8.84
396,ocean city,1,US,1596062220,36,39.28,-74.57,91.4,10.29
397,hasaki,75,JP,1596062220,94,35.73,140.83,68,8.05
398,ibra,88,OM,1596062221,53,22.69,58.53,88.05,4.23
399,noumea,55,NC,1596062221,57,-22.28,166.46,80.6,10.29
400,santa marta,44,CO,1596061933,58,11.24,-74.2,95,14.32
401,aklavik,75,CA,1596062221,76,68.22,-135.01,55.4,3.36
402,liku,100,ID,1596062222,83,-0.73,119.89,75.76,2.42
403,xuddur,2,SO,1596062222,81,4.12,43.89,73.04,14.61
404,torbay,90,CA,1596062222,93,47.67,-52.73,55,6.93
405,berdigestyakh,0,RU,1596062222,82,62.1,126.7,58.08,3.78
406,coahuayana,90,MX,1596062187,94,18.73,-103.68,69.8,3.65
407,takoradi,87,GH,1596062223,89,4.88,-1.76,74.52,9.6
408,maceio,40,BR,1596061997,78,-9.67,-35.74,75.2,10.29
409,yangambi,75,CD,1596062223,89,0.81,24.43,71.2,1.74
410,chinhoyi,5,ZW,1596062224,68,-17.37,30.2,51.48,1.32
411,ouallam,1,NE,1596062224,41,14.32,2.09,91.06,12.26
412,manaure,94,CO,1596062224,72,11.78,-72.44,83.93,21.43
413,veraval,100,IN,1596062224,81,20.9,70.37,83.91,12.88
414,agirish,100,RU,1596062224,93,61.92,63.02,48.97,6.42
415,skagen,100,DK,1596062225,85,57.72,10.58,60.01,31
416,vostok,2,RU,1596062138,76,46.49,135.88,73.36,1.88
417,ust-kulom,88,RU,1596062105,98,61.69,53.69,51.44,3.69
418,lavrentiya,94,RU,1596062225,83,65.58,-171,49.23,11.3
419,srednekolymsk,95,RU,1596062226,58,67.45,153.68,52.25,11.99
420,doba,100,TD,1596062226,96,8.65,16.85,69.28,4
421,usinsk,69,RU,1596062226,75,65.99,57.53,50.58,11.03
422,hay river,75,CA,1596062226,43,60.82,-115.8,73.4,9.17
423,dunedin,99,NZ,1596062226,72,-45.87,170.5,48.99,5.01
424,lichtenburg,0,ZA,1596062227,53,-26.15,26.16,46.36,3.44
425,brainerd,1,US,1596062227,42,46.36,-94.2,80.6,4.7
426,santa cruz,75,BO,1596062072,27,-17.8,-63.17,66.2,12.75
427,bell ville,0,AR,1596062227,43,-32.63,-62.69,46,1.01
428,hofn,13,IS,1596061967,82,64.25,-15.21,51.8,2.48
429,ilhabela,100,BR,1596062228,87,-23.78,-45.36,66.42,8.63
430,crestview,40,US,1596062228,94,30.76,-86.57,77,4.7
431,hobyo,12,SO,1596062228,83,5.35,48.53,77.61,20.27
432,ivaipora,76,BR,1596062228,98,-24.25,-51.68,59.76,0.51
433,port macquarie,15,AU,1596061999,80,-31.43,152.92,59,1.01
434,keetmanshoop,0,NA,1596062229,31,-26.58,18.13,60.8,8.05
435,semey,53,KZ,1596062229,76,50.41,80.23,60.58,6.64
436,sitka,1,US,1596062229,68,57.05,-135.33,64.4,5.82
437,asyut,0,EG,1596062229,42,27.18,31.18,86,11.41
438,petropavlovsk-kamchatskiy,95,RU,1596062181,59,53.05,158.65,66.2,4.47
439,staropesterevo,19,RU,1596062230,95,54.5,86.41,57.43,9.66
440,odweyne,24,SO,1596062230,62,9.41,45.06,72.14,15.7
441,gejiu,33,CN,1596062230,100,23.31,103.16,57.88,0.58
442,verkhnyaya inta,47,RU,1596062230,71,65.98,60.31,48.07,7.78
443,adeje,20,ES,1596062230,69,28.12,-16.73,73.99,14.99
444,nushki,53,PK,1596062231,15,29.55,66.02,82.56,5.28
445,beinamar,100,TD,1596062231,93,8.67,15.38,70.9,2.46
446,angoram,11,PG,1596062231,78,-4.06,144.07,80.69,3.31
447,tecoanapa,35,MX,1596062231,69,16.52,-98.75,86.13,8.16
448,baruun-urt,99,MN,1596062231,81,46.68,113.28,63.34,3.02
449,talakan,0,RU,1596062231,69,50.32,130.37,77.41,2.01
450,kantunilkin,75,MX,1596062232,70,21.09,-87.45,87.8,5.82
451,kelvington,100,CA,1596062232,70,52.17,-103.53,78.37,11.14
452,atambua,38,ID,1596062232,72,-9.11,124.89,67.73,5.75
453,linxia,78,CN,1596062232,72,35.6,103.21,64.54,3.15
454,yarada,75,IN,1596062233,94,17.65,83.27,80.6,2.77
455,santa cruz de la palma,90,ES,1596062233,73,28.68,-17.76,73.4,16.11
456,novoagansk,17,RU,1596062233,92,61.94,76.66,46.54,3.18
457,russell,75,US,1596062233,78,32.35,-85.2,82.4,16.11
458,verbivka,11,UA,1596062233,53,49.42,35.53,68.16,6.04
459,mao,0,ES,1596062157,88,39.89,4.27,77,6.93
460,saldanha,0,ZA,1596062234,87,-33.01,17.94,48.2,1.88
461,basoko,82,CD,1596062234,90,1.24,23.62,72.21,4.81
462,conceicao da barra,0,BR,1596062234,79,-18.59,-39.73,70.05,5.46
463,nome,90,US,1596062150,87,64.5,-165.41,50,11.41
464,salta,8,AR,1596062187,34,-24.79,-65.41,53.6,9.17
465,port keats,0,AU,1596062235,33,-14.25,129.55,63.5,13.18
466,kutum,81,SD,1596062235,68,14.2,24.67,75.27,6.58
467,hualmay,7,PE,1596062235,76,-11.1,-77.61,61.99,8.03
468,pativilca,5,PE,1596062235,79,-10.7,-77.78,60.44,6.89
469,gunjur,40,GM,1596062235,88,13.2,-16.73,78.8,5.82
470,asau,5,RO,1596062173,85,46.43,26.4,64.99,4.18
471,bichura,95,RU,1596062236,81,50.59,107.6,64.67,0.76
472,dawlatabad,0,AF,1596062236,22,36.41,64.91,72.52,3.27
473,avera,40,US,1596062236,62,33.19,-82.53,87.8,9.42
474,lompoc,6,US,1596061986,64,34.64,-120.46,71.01,16.11
475,binzhou,0,CN,1596062237,74,37.37,118.02,80.38,2.95
476,lubango,0,AO,1596062237,50,-14.92,13.49,54.64,3.56
477,nisia floresta,40,BR,1596062237,94,-6.09,-35.21,75.2,8.05
478,boda,82,CF,1596062238,96,4.32,17.47,68.65,2.91
479,kenai,1,US,1596062238,63,60.55,-151.26,69.8,9.17
480,panzhihua,73,CN,1596062238,73,26.59,101.71,71.71,1.41
481,shelopugino,78,RU,1596062194,88,51.65,117.56,66.81,2.26
482,pampa,1,US,1596062011,25,35.54,-100.96,96.8,9.17
483,sabang,100,ID,1596062239,75,5.89,95.32,82.62,6.38
484,buin,0,CL,1596062123,49,-33.73,-70.75,69.8,0.96
485,bangkalan,36,ID,1596062239,81,-7.05,112.74,71.69,7.76
486,kalabo,0,ZM,1596062239,42,-14.97,22.68,56.14,6.42
487,enniscorthy,100,IE,1596062239,98,52.5,-6.56,60.01,7
488,grootfontein,0,NA,1596062240,45,-19.57,18.12,48.02,6.11
489,gerede,0,TR,1596062240,82,40.8,32.2,53.92,2.06
490,safford,1,US,1596062240,13,32.83,-109.71,105.8,5.82
491,arlit,39,NE,1596062240,24,18.74,7.39,97.09,7.09
492,aloleng,99,PH,1596062240,81,16.13,119.78,81.41,7.47
493,tuy hoa,85,VN,1596062241,88,13.08,109.3,77.85,7.14
494,bekhtery,1,UA,1596062241,69,46.25,32.29,73.72,3.65
495,jining,1,CN,1596062241,82,35.41,116.58,75.67,5.3
496,ust-kuyga,100,RU,1596062242,72,70.02,135.6,44.04,5.68
497,tariba,40,VE,1596062242,52,7.82,-72.22,89.6,13.87
498,fairbanks,1,US,1596062033,59,64.84,-147.72,66,10.29
499,oistins,75,BB,1596062242,83,13.07,-59.53,82.4,19.46
500,sao jose da coroa grande,84,BR,1596062242,75,-8.9,-35.15,75.31,14.34
501,ocos,75,GT,1596062243,79,14.51,-92.19,84.2,6.93
502,belmonte,20,BR,1596062114,69,-15.86,-38.88,73.4,6.93
503,acapulco,75,MX,1596062089,79,16.86,-99.89,86,6.93
504,puerto del rosario,40,ES,1596062243,78,28.5,-13.86,73.4,20.8
505,gualaquiza,90,EC,1596062243,87,-3.4,-78.55,66.24,1.07
506,belaya gora,99,RU,1596062244,59,68.53,146.42,49.23,10.36
507,flin flon,40,CA,1596062244,50,54.77,-101.86,78.8,5.82
508,cockburn town,20,TC,1596062244,70,21.46,-71.14,86,18.34
509,mastung,40,PK,1596062245,41,29.8,66.84,71.46,2.64
510,vestmannaeyjar,28,IS,1596062245,87,63.44,-20.27,52.3,5.39
511,faya,77,SA,1596062245,93,18.39,42.45,64.4,3.36
512,choma,0,ZM,1596062245,64,-16.81,26.95,51.78,3.94
513,tahta,0,EG,1596062245,26,26.77,31.5,91.4,6.93
514,waingapu,0,ID,1596062246,79,-9.66,120.26,72.03,9.73
515,itapaci,2,BR,1596062246,40,-14.95,-49.55,72.7,4.25
516,catuday,98,PH,1596062246,83,16.29,119.81,80.26,6.93
517,vila franca do campo,75,PT,1596062246,94,37.72,-25.43,71.6,9.17
518,soyo,40,AO,1596062246,83,-6.13,12.37,72.09,7.9
519,hirtshals,100,DK,1596062247,89,57.59,9.96,55,8.01
520,nortelandia,36,BR,1596062247,41,-14.45,-56.8,78.28,4.34
521,micheweni,45,TZ,1596062247,78,-4.97,39.83,77.79,11.21
522,port lincoln,0,AU,1596062247,84,-34.73,135.87,53.01,4.23
523,omboue,99,GA,1596062247,79,-1.57,9.26,74.3,8.23
524,tessalit,3,ML,1596062013,16,20.2,1.01,96.13,7.9
525,andalan,100,PH,1596062248,83,5.96,121.39,80.4,7.16
526,stornoway,97,GB,1596062248,87,58.21,-6.39,51.01,1.12
527,san quintin,0,MX,1596062249,64,30.48,-115.95,74.21,16.26
528,palmer,20,US,1596062143,26,42.16,-72.33,91.4,11.41
529,shache,14,CN,1596062249,31,38.42,77.24,73.85,6.71
530,bitkine,100,TD,1596062249,85,11.98,18.21,72.34,12.62
531,trairi,19,BR,1596062249,76,-3.28,-39.27,78.37,12.21
532,eureka,10,US,1596062125,50,40.8,-124.16,70,1.99
533,betera,90,ES,1596062250,88,39.58,-0.45,80.6,3.36
534,xining,87,CN,1596062250,65,36.62,101.77,58.87,3.06
535,cartagena,75,CO,1596062220,79,10.4,-75.51,86,12.75
536,henties bay,0,NA,1596062250,89,-22.12,14.28,55.99,7.07
537,padre bernardo,23,BR,1596062251,39,-15.35,-48.5,71.35,4.38
538,yerbogachen,92,RU,1596062251,77,61.28,108.01,55.92,9.48
539,kokoda,53,PG,1596062251,64,-8.88,147.74,81.07,1.95
540,serrinha,29,BR,1596062251,95,-11.66,-39.01,64.62,8.05
541,zima,100,RU,1596062251,97,53.92,102.04,57.67,2.89
